name,country,population,latitude,longitude
Gulf_of_Aqaba,Saudi Arabia,1,28.404,34.738
Jazirat_Baraqan,Saudi Arabia,2,27.90988889,35.06541667
Al_Wajh,Saudi Arabia,3,25.58238333,36.54863333
Thuwal,Saudi Arabia,4,22.26606389,38.96359444
Dunganab_Bay,Sudan,5,21.02395,37.13625
Offshore_Reefs,Sudan,6,20.13892,37.2846
South_Farasan_Banks,Saudi Arabia,7,18.65951667,40.82696667